,City,Lat,Lng,Max Temp,Humidity,Cloudiness,Wind Speed,Country,Date
0,kosh-agach,50.0,88.67,40.86,52,0,3.89,RU,1603341309
1,atuona,-9.8,-139.03,77.85,74,4,16.17,PF,1603340839
2,albany,42.6,-73.97,63.0,77,98,1.99,US,1603340861
3,hermanus,-34.42,19.23,55.99,90,2,1.99,ZA,1603340842
4,sao filipe,14.9,-24.5,80.56,74,41,5.12,CV,1603340939
5,rikitea,-23.12,-134.97,74.12,73,78,2.59,PF,1603341381
6,avarua,-21.21,-159.78,75.2,83,100,8.05,CK,1603341328
7,ahipara,-35.17,173.17,59.63,94,100,7.05,NZ,1603341381
8,nanortalik,60.14,-45.24,34.07,81,36,36.06,GL,1603341382
9,port alfred,-33.59,26.89,66.38,71,0,6.91,ZA,1603341268
10,vardo,70.37,31.11,28.4,92,75,8.05,NO,1603341295
11,kapaa,22.08,-159.32,78.8,78,75,5.82,US,1603341281
12,ajdabiya,30.76,20.23,62.94,52,10,5.57,LY,1603341382
13,chokurdakh,70.63,147.92,12.61,95,100,4.27,RU,1603341383
14,port elizabeth,-33.92,25.57,50.0,93,0,3.36,ZA,1603340900
15,vaini,-21.2,-175.2,73.4,78,90,8.05,TO,1603340847
16,tual,-5.67,132.75,82.38,74,10,2.75,ID,1603341383
17,soanierana ivongo,-16.92,49.58,76.03,73,34,10.38,MG,1603341383
18,araouane,18.9,-3.53,84.27,18,0,6.15,ML,1603340889
19,hithadhoo,-0.6,73.08,82.83,74,29,12.86,MV,1603340839
20,punta arenas,-53.15,-70.92,48.2,66,75,16.11,CL,1603340857
21,puerto ayora,-0.74,-90.35,68.0,94,98,8.01,EC,1603340843
22,mataura,-46.19,168.86,60.01,57,94,8.01,NZ,1603340947
23,kahului,20.89,-156.47,82.4,58,20,5.82,US,1603340825
24,mindelo,16.89,-24.98,78.8,78,20,20.8,CV,1603341385
25,chapais,49.78,-74.85,32.0,99,90,5.82,CA,1603341164
26,qaanaaq,77.48,-69.36,19.63,86,98,6.98,GL,1603340859
27,tuktoyaktuk,69.45,-133.04,17.6,85,90,12.75,CA,1603340852
28,dingle,11.0,122.67,86.95,73,26,15.68,PH,1603340935
29,cockburn town,21.46,-71.14,81.57,76,100,15.39,TC,1603340917
30,hobart,-42.88,147.33,63.0,59,75,9.17,AU,1603340958
31,mathbaria,22.29,89.96,73.78,96,100,13.96,BD,1603341386
32,upernavik,72.79,-56.15,23.11,95,70,2.75,GL,1603340849
33,dalby,-27.18,151.27,77.0,54,99,1.99,AU,1603341387
34,cabo san lucas,22.89,-109.91,82.0,70,0,9.42,MX,1603340738
35,puerto escondido,15.85,-97.07,79.16,80,71,3.69,MX,1603341387
36,ushuaia,-54.8,-68.3,48.2,57,75,7.25,AR,1603340950
37,alofi,-19.06,-169.92,75.2,94,85,17.22,NU,1603340702
38,qixia,37.3,120.83,60.46,34,2,16.31,CN,1603341388
39,darnah,32.77,22.64,68.07,66,11,11.07,LY,1603341388
40,provideniya,64.38,-173.3,41.0,86,90,4.47,RU,1603340866
41,khakhea,-24.69,23.49,70.23,52,0,21.09,BW,1603341388
42,busselton,-33.65,115.33,71.01,32,11,7.09,AU,1603340863
43,kodiak,57.79,-152.41,44.6,56,1,18.34,US,1603340637
44,puerto del rosario,28.5,-13.86,69.8,83,40,6.93,ES,1603341389
45,labuhan,-6.88,112.21,89.01,56,76,4.43,ID,1603340850
46,shenjiamen,29.96,122.3,64.87,80,99,17.47,CN,1603341389
47,murray bridge,-35.12,139.27,79.0,62,79,1.99,AU,1603341305
48,longyearbyen,78.22,15.64,24.8,68,75,8.05,SJ,1603340623
49,barrow,71.29,-156.79,33.8,95,90,16.11,US,1603340879
50,talaya,61.38,152.75,27.21,81,0,6.44,RU,1603341390
51,lagoa,39.05,-27.98,62.76,67,73,15.26,PT,1603340695
52,aklavik,68.22,-135.01,19.4,73,20,14.99,CA,1603340912
53,pisco,-13.7,-76.22,62.6,82,0,9.17,PE,1603340896
54,ust-maya,60.42,134.53,24.44,94,100,9.31,RU,1603341341
55,samdrup jongkhar,26.92,91.62,79.61,56,13,4.36,BT,1603341392
56,jamestown,42.1,-79.24,53.6,93,90,3.36,US,1603340882
57,port hardy,50.7,-127.42,41.0,80,5,8.05,CA,1603340755
58,georgetown,5.41,100.34,82.0,88,40,4.7,MY,1603340760
59,flin flon,54.77,-101.86,24.28,91,100,4.05,CA,1603341029
60,marystown,47.17,-55.15,54.0,100,98,11.36,CA,1603341340
61,cibeureum,-7.36,108.27,86.59,65,41,3.4,ID,1603341393
62,new norfolk,-42.78,147.06,63.0,43,57,1.99,AU,1603340839
63,castro,-24.79,-50.01,57.72,95,31,9.55,BR,1603340849
64,taldan,53.67,124.8,30.31,79,46,13.73,RU,1603341015
65,port lincoln,-34.73,135.87,59.29,85,100,8.19,AU,1603340836
66,malmesbury,-33.46,18.73,59.0,93,0,6.58,ZA,1603341394
67,roebourne,-20.78,117.13,92.44,20,7,17.36,AU,1603341394
68,conceicao do araguaia,-8.26,-49.26,80.1,58,9,1.92,BR,1603341394
69,kavaratti,10.57,72.64,84.2,74,20,9.17,IN,1603340962
70,roma,43.21,-75.46,57.2,82,90,2.66,US,1603340880
71,kamyshin,50.1,45.42,36.9,81,84,4.83,RU,1603341395
72,atambua,-9.11,124.89,88.93,45,1,5.17,ID,1603340890
73,talnakh,69.49,88.4,12.2,85,40,8.95,RU,1603340887
74,sao joao da barra,-21.64,-41.05,72.72,87,42,10.92,BR,1603340747
75,faanui,-16.48,-151.75,79.3,76,47,12.1,PF,1603340843
76,norton shores,43.17,-86.26,48.2,81,90,6.67,US,1603341395
77,ixtapa,20.7,-105.2,82.0,96,98,0.45,MX,1603340935
78,berlevag,70.86,29.09,21.2,92,14,3.36,NO,1603340693
79,raga,8.46,25.68,72.12,88,85,2.1,SS,1603341056
80,margate,51.38,1.39,55.99,82,0,4.0,GB,1603340900
81,diego de almagro,-26.37,-70.05,53.01,63,0,0.54,CL,1603341397
82,avera,33.19,-82.53,69.8,100,75,4.7,US,1603341323
83,cherskiy,68.75,161.3,21.61,94,0,10.74,RU,1603341067
84,erdenet,49.03,104.08,39.43,65,0,3.98,MN,1603341173
85,severo-kurilsk,50.68,156.12,43.27,68,90,10.49,RU,1603340911
86,petrolina,-9.4,-40.5,82.4,54,3,14.99,BR,1603341398
87,rivadavia,-33.19,-68.46,60.8,59,40,8.05,AR,1603341398
88,tarakan,3.3,117.63,83.64,73,46,8.14,ID,1603341398
89,faya,18.39,42.45,59.0,18,20,3.36,SA,1603341398
90,ginir,7.13,40.7,59.23,79,2,4.23,ET,1603340939
91,vestmannaeyjar,63.44,-20.27,42.22,92,100,39.86,IS,1603341311
92,paris,48.85,2.35,59.0,93,90,6.93,FR,1603341200
93,sitka,57.05,-135.33,33.8,47,1,4.7,US,1603340937
94,tuy hoa,13.08,109.3,79.99,73,100,11.01,VN,1603341399
95,kavieng,-2.57,150.8,84.87,66,32,7.4,PG,1603340866
96,guapiacu,-20.8,-49.22,69.44,80,19,10.38,BR,1603341399
97,cape town,-33.93,18.42,59.0,87,0,11.41,ZA,1603340587
98,yellowknife,62.46,-114.35,23.0,85,90,8.05,CA,1603340840
99,kruisfontein,-34.0,24.73,54.73,67,0,3.94,ZA,1603340860
100,maningrida,-12.07,134.27,91.02,43,76,11.7,AU,1603341275
101,asau,46.43,26.4,46.99,93,100,2.24,RO,1603340898
102,hilo,19.73,-155.09,78.8,69,1,5.28,US,1603340855
103,monte patria,-30.69,-70.95,56.01,57,0,0.16,CL,1603341401
104,sarny,51.34,26.6,45.9,75,87,9.84,UA,1603341401
105,ishigaki,24.34,124.16,80.6,94,75,5.82,JP,1603341401
106,zabol,32.25,67.25,59.13,25,0,2.13,AF,1603341402
107,altamont,42.21,-121.74,46.4,61,1,10.29,US,1603341402
108,washington,47.5,-120.5,43.0,74,0,4.14,US,1603341402
109,san vicente,-26.62,-54.13,66.58,73,3,4.76,AR,1603341403
110,santa isabel do rio negro,-0.41,-65.02,73.71,97,45,0.83,BR,1603341403
111,ola,59.58,151.28,35.04,78,72,8.55,RU,1603340923
112,narsaq,60.92,-46.05,28.4,63,76,1.12,GL,1603340864
113,hasaki,35.73,140.83,72.0,68,75,4.7,JP,1603340897
114,toora-khem,52.47,96.11,38.23,71,40,3.24,RU,1603340874
115,riyadh,24.69,46.72,64.4,31,0,3.36,SA,1603341404
116,calabozo,8.92,-67.43,75.24,94,44,3.38,VE,1603341404
117,semirom,31.42,51.57,53.51,26,0,3.6,IR,1603341404
118,zhongxing,33.7,118.68,67.68,24,0,10.47,CN,1603341404
119,pangnirtung,66.15,-65.71,24.82,94,100,4.36,CA,1603340857
120,arraial do cabo,-22.97,-42.03,72.43,88,27,12.21,BR,1603340951
121,mbandaka,0.05,18.26,70.3,93,98,2.55,CD,1603341405
122,evensk,61.95,159.23,33.85,87,20,4.03,RU,1603341065
123,bluff,-46.6,168.33,60.01,57,96,8.01,NZ,1603340734
124,vangazi,57.09,24.55,50.0,100,90,12.75,LV,1603341405
125,airai,-8.93,125.41,79.84,48,24,1.66,TL,1603340743
126,saint george,37.1,-113.58,68.0,15,1,8.05,US,1603340851
127,ostrovnoy,68.05,39.51,26.83,97,64,4.81,RU,1603341044
128,te anau,-45.42,167.72,52.86,69,100,5.82,NZ,1603340919
129,gidole,5.65,37.37,62.29,87,86,2.84,ET,1603341406
130,honiara,-9.43,159.95,86.0,70,75,3.36,SB,1603341407
131,bethel,41.37,-73.41,64.4,100,90,2.68,US,1603340877
132,san cristobal,7.77,-72.22,65.82,87,70,2.26,VE,1603340838
133,dunedin,-45.87,170.5,54.0,79,100,14.0,NZ,1603340904
134,san patricio,28.02,-97.52,79.0,83,1,10.29,US,1603341118
135,buraydah,26.33,43.98,62.6,42,0,4.7,SA,1603341408
136,zhigansk,66.77,123.37,18.79,96,87,7.07,RU,1603340931
137,east london,-33.02,27.91,62.6,82,0,9.17,ZA,1603340865
138,isangel,-19.55,169.27,84.2,70,75,6.93,VU,1603340894
139,laguna,38.42,-121.42,69.01,52,1,1.86,US,1603341070
140,werda,-25.27,23.28,71.47,49,23,19.06,BW,1603341409
141,mananjary,-21.22,48.33,76.69,63,36,3.42,MG,1603341409
142,mahebourg,-20.41,57.7,77.0,65,40,12.75,MU,1603340961
143,zeerust,-25.54,26.08,62.6,67,0,21.92,ZA,1603341409
144,acapulco,16.86,-99.89,79.27,83,40,4.18,MX,1603341150
145,rabo de peixe,37.8,-25.58,60.8,72,20,14.99,PT,1603341410
146,grand forks,47.94,-97.43,30.2,92,90,5.82,US,1603341410
147,palmer,42.16,-72.33,64.99,100,1,4.7,US,1603341410
148,yantal,56.85,105.25,44.04,68,92,8.43,RU,1603341411
149,saint-philippe,-21.36,55.77,78.8,65,53,18.34,RE,1603340736
150,ascoli piceno,42.85,13.57,55.99,24,0,4.7,IT,1603341400
151,waipawa,-41.41,175.52,62.01,67,0,20.8,NZ,1603341411
152,bac lieu,9.29,105.72,82.89,80,100,5.86,VN,1603341082
153,sarab,38.61,44.99,42.8,93,0,2.24,IR,1603341411
154,manbij,36.53,37.95,57.2,58,0,3.47,SY,1603341412
155,schkeuditz,51.4,12.22,57.99,71,71,9.17,DE,1603341412
156,rocha,-34.48,-54.33,55.2,77,99,10.63,UY,1603340940
157,poum,-20.23,164.02,77.25,76,0,13.91,NC,1603340888
158,bubaque,11.28,-15.83,81.5,82,91,8.68,GW,1603341413
159,itoman,26.12,127.67,77.0,100,75,5.82,JP,1603341075
160,chifeng,42.27,118.96,42.89,47,10,15.46,CN,1603341070
161,erenhot,43.65,111.98,38.41,57,0,11.59,CN,1603341402
162,cabedelo,-6.98,-34.83,75.2,100,75,5.82,BR,1603340912
163,sturgis,41.8,-85.42,48.2,93,90,4.7,US,1603341414
164,boa vista,2.82,-60.67,82.4,61,15,6.93,BR,1603341415
165,puerto varas,-41.32,-72.99,37.4,93,20,3.67,CL,1603341119
166,kudahuvadhoo,2.67,72.89,82.29,79,2,12.66,MV,1603340966
167,brae,60.4,-1.35,46.4,65,99,18.34,GB,1603340967
168,kachiry,53.07,76.1,42.26,63,100,17.27,KZ,1603341416
169,ati,13.22,18.34,79.56,17,11,8.16,TD,1603341416
170,pudozh,61.81,36.53,29.57,96,100,6.42,RU,1603341186
171,coquimbo,-29.95,-71.34,50.0,93,1,2.24,CL,1603340914
172,umm bab,25.21,50.81,84.99,78,1,8.05,QA,1603341417
173,wanaka,-44.7,169.15,60.71,45,85,2.21,NZ,1603341312
174,lompoc,34.64,-120.46,59.0,87,90,2.86,US,1603340770
175,port macquarie,-31.43,152.92,75.0,56,88,1.99,AU,1603340879
176,sambava,-14.27,50.17,78.49,67,77,16.62,MG,1603341400
177,mahibadhoo,3.78,72.97,82.72,78,43,15.48,MV,1603341418
178,bengkulu,-3.8,102.27,81.18,72,100,8.9,ID,1603340870
179,pochutla,15.74,-96.47,75.0,88,49,2.84,MX,1603340858
180,okha,53.57,142.95,50.45,80,99,14.97,RU,1603341418
181,gat,31.61,34.76,70.0,82,0,2.24,IL,1603341374
182,hovd,48.01,91.64,41.74,56,0,2.77,MN,1603340968
183,nueva gerona,21.88,-82.8,81.7,77,97,13.67,CU,1603341419
184,deputatskiy,69.3,139.9,10.06,97,100,1.7,RU,1603340946
185,clyde river,70.47,-68.59,15.8,72,1,5.82,CA,1603340750
186,kenora,49.82,-94.43,30.2,92,90,2.24,CA,1603341336
187,saint-joseph,-21.37,55.62,78.8,65,33,18.34,RE,1603341353
188,cidreira,-30.18,-50.21,65.34,88,100,17.87,BR,1603340842
189,nouadhibou,20.93,-17.03,71.6,88,0,11.41,MR,1603341420
190,ladario,-19.0,-57.6,73.09,87,92,2.17,BR,1603341420
191,ponta do sol,32.67,-17.1,64.4,59,20,9.17,PT,1603340895
192,norman wells,65.28,-126.83,21.2,85,90,10.29,CA,1603340853
193,naryan-mar,67.67,53.09,24.06,96,15,7.99,RU,1603340898
194,volzhsk,55.87,48.36,32.0,93,75,17.9,RU,1603341421
195,nikolskoye,59.7,30.79,41.0,93,90,8.95,RU,1603340885
196,ankazoabo,-22.28,44.52,81.14,29,0,8.75,MG,1603341422
197,bambous virieux,-20.34,57.76,78.01,65,40,12.75,MU,1603340733
198,ca mau,9.18,105.15,82.71,80,100,3.13,VN,1603341205
199,trairi,-3.28,-39.27,79.52,79,76,12.12,BR,1603341422
200,mar del plata,-38.0,-57.56,55.0,81,55,13.87,AR,1603340854
201,antalaha,-14.9,50.28,78.48,66,50,12.93,MG,1603341320
202,lavrentiya,65.58,-171.0,35.51,91,0,3.49,RU,1603340901
203,azuqueca de henares,40.57,-3.26,55.4,100,75,4.7,ES,1603341423
204,jaisalmer,26.91,70.92,85.32,13,0,4.12,IN,1603340941
205,ilulissat,69.22,-51.1,28.4,86,100,5.82,GL,1603340896
206,tromso,69.65,18.96,24.8,85,57,10.29,NO,1603341424
207,naze,28.37,129.48,78.8,88,75,17.22,JP,1603340880
208,kamiiso,41.82,140.65,62.6,72,75,4.7,JP,1603341424
209,singaraja,-8.11,115.09,85.15,65,12,3.74,ID,1603341424
210,port blair,11.67,92.75,84.11,77,66,12.08,IN,1603340948
211,bathsheba,13.22,-59.52,82.4,78,40,16.11,BB,1603340790
212,harper,4.38,-7.72,77.0,87,87,4.63,LR,1603340924
213,kirando,-7.42,30.6,76.93,64,90,1.68,TZ,1603341425
214,torbay,47.67,-52.73,48.0,93,90,12.75,CA,1603340876
215,salta,-24.79,-65.41,71.6,64,75,3.36,AR,1603340656
216,svetlyy,54.67,20.13,51.8,81,55,13.42,RU,1603340849
217,antofagasta,-23.65,-70.4,59.0,82,75,8.05,CL,1603341413
218,presidente medici,-11.18,-61.9,75.85,83,94,1.19,BR,1603341426
219,rio grande,-32.03,-52.1,63.0,86,97,7.0,BR,1603340790
220,karratha,-20.74,116.85,89.87,25,17,18.45,AU,1603341359
221,potsdam,52.4,13.07,59.0,77,73,11.54,DE,1603341427
222,saskylakh,71.92,114.08,6.64,94,8,7.61,RU,1603340856
223,pevek,69.7,170.31,29.5,97,18,8.05,RU,1603340846
224,beloha,-25.17,45.05,79.03,45,0,9.91,MG,1603341045
225,ancud,-41.87,-73.82,41.0,93,22,3.36,CL,1603340884
226,petropavlovsk-kamchatskiy,53.05,158.65,53.6,32,0,6.71,RU,1603341428
227,srednekolymsk,67.45,153.68,19.71,90,20,6.17,RU,1603340801
228,yulara,-25.24,130.99,96.8,12,45,25.28,AU,1603340675
229,geraldton,-28.77,114.6,73.4,53,0,18.34,AU,1603340870
230,vlasotince,42.96,22.12,37.4,86,42,2.24,RS,1603341429
231,orangeburg,33.49,-80.86,71.01,88,1,3.36,US,1603341407
232,ullapool,57.9,-5.16,46.0,63,100,1.99,GB,1603341429
233,hailar,49.2,119.7,31.73,85,0,9.89,CN,1603341116
234,iqaluit,63.75,-68.51,32.0,93,90,3.36,CA,1603341391
235,byron bay,-28.65,153.62,75.2,73,75,14.99,AU,1603340762
236,butaritari,3.07,172.79,82.08,71,39,8.68,KI,1603341316
237,jaguarao,-32.57,-53.38,60.69,81,92,15.21,BR,1603341430
238,barra do garcas,-15.89,-52.26,73.31,85,92,3.49,BR,1603341430
239,odessa,46.48,30.73,50.0,87,95,8.95,UA,1603341170
240,maceio,-9.67,-35.74,71.6,100,20,9.22,BR,1603341431
241,mango,27.98,-82.31,75.99,88,1,10.74,US,1603341431
242,nacala,-14.54,40.67,80.62,65,0,8.52,MZ,1603341432
243,ribeira grande,38.52,-28.7,63.34,71,97,14.54,PT,1603340860
244,hoopstad,-27.83,25.91,68.56,36,0,9.66,ZA,1603341432
245,nome,64.5,-165.41,37.4,86,90,5.82,US,1603341315
246,sola,-13.88,167.55,82.4,88,90,10.33,VU,1603341433
247,nantucket,41.28,-70.1,61.0,92,1,4.7,US,1603340900
248,charters towers,-20.1,146.27,94.98,20,7,6.42,AU,1603341074
249,haines junction,60.75,-137.51,21.79,81,5,1.79,CA,1603340802
250,coos bay,43.37,-124.22,51.8,66,1,6.93,US,1603341434
251,huarmey,-10.07,-78.15,63.05,85,67,8.77,PE,1603340928
252,shelburne,44.08,-80.2,42.01,100,1,3.36,CA,1603340901
253,beringovskiy,63.05,179.32,38.44,85,35,6.11,RU,1603341106
254,saldanha,-33.01,17.94,48.2,87,0,4.7,ZA,1603340739
255,north branch,45.51,-92.98,32.0,90,100,1.28,US,1603341435
256,saint-francois,46.42,3.91,61.0,87,98,2.24,FR,1603341435
257,warrington,53.39,-2.58,51.01,81,75,10.29,GB,1603341366
258,khandyga,62.67,135.6,22.39,94,100,4.76,RU,1603341436
259,santa comba,43.03,-8.81,55.99,92,28,1.01,ES,1603341390
260,katsuura,35.13,140.3,73.0,60,75,5.82,JP,1603340867
261,sinnamary,5.38,-52.95,79.66,84,19,8.99,GF,1603340886
262,erzin,36.96,36.2,66.2,88,2,10.29,TR,1603341436
263,dalaba,10.7,-12.25,60.85,98,76,2.8,GN,1603341437
264,teguldet,57.31,88.17,46.42,60,100,12.44,RU,1603341436
265,klaksvik,62.23,-6.59,33.8,86,88,1.12,FO,1603340873
266,guerrero negro,27.98,-114.06,67.23,89,1,9.78,MX,1603341078
267,dikson,73.51,80.55,24.96,94,99,12.75,RU,1603340744
268,turinsk,58.05,63.7,31.73,95,93,8.21,RU,1603341438
269,henties bay,-22.12,14.28,60.01,87,5,1.01,NA,1603341276
270,ranapur,22.65,74.53,86.58,51,32,3.98,IN,1603341440
271,tiksi,71.69,128.87,13.05,95,100,5.39,RU,1603340854
272,makakilo city,21.35,-158.09,77.0,88,90,3.36,US,1603341103
273,hammelburg,50.12,9.9,55.0,78,46,4.88,DE,1603341441
274,bosaso,11.28,49.18,85.59,51,43,1.5,SO,1603341441
275,wanning,18.8,110.4,78.96,64,70,15.73,CN,1603341441
276,bam,29.11,58.36,75.34,13,0,10.67,IR,1603341441
277,along,28.17,94.77,85.71,43,4,1.81,IN,1603341442
278,madinat sittah uktubar,29.82,31.05,68.0,88,4,3.36,EG,1603341442
279,oranjemund,-28.55,16.43,60.17,76,90,22.41,NA,1603340881
280,kovdor,67.57,30.48,29.17,95,100,12.66,RU,1603341442
281,banda aceh,5.56,95.32,86.86,60,100,12.53,ID,1603341088
282,chuy,-33.7,-53.46,57.7,78,76,14.03,UY,1603340878
283,beipiao,41.79,120.78,46.09,43,33,16.04,CN,1603341355
284,verkhnyaya inta,65.98,60.31,15.8,97,82,4.47,RU,1603340914
285,romanovo,52.62,81.23,48.2,61,100,22.12,RU,1603341444
286,karachi,24.91,67.08,78.8,47,3,4.43,PK,1603341444
287,marsa matruh,31.35,27.25,66.2,68,2,3.83,EG,1603341402
288,ayan,56.45,138.17,40.84,90,100,11.36,RU,1603340932
289,manggar,-2.88,108.27,87.08,63,96,6.35,ID,1603340892
290,saint anthony,45.02,-93.22,33.8,80,75,3.69,US,1603341024
291,mount gambier,-37.83,140.77,66.2,55,100,6.93,AU,1603340933
292,yining,29.04,114.56,73.8,36,0,4.83,CN,1603341445
293,sabha,27.04,14.43,66.06,56,8,10.98,LY,1603340963
294,quelimane,-17.88,36.89,73.4,88,75,9.17,MZ,1603341053
295,kloulklubed,7.04,134.26,82.4,83,90,9.17,PW,1603341446
296,ouadda,8.08,22.4,69.04,82,85,1.92,CF,1603341359
297,alexandria,31.22,29.96,69.8,77,20,4.7,EG,1603341286
298,esperance,-33.87,121.9,64.4,77,75,17.22,AU,1603340658
299,nosy varika,-20.58,48.53,77.47,60,32,0.98,MG,1603341447
300,vernon,50.26,-119.27,36.0,90,75,4.7,CA,1603341447
301,maubin,16.73,95.65,86.0,74,75,9.17,MM,1603341447
302,bolitoc,15.74,119.88,82.36,84,100,19.3,PH,1603341448
303,codrington,-38.27,141.97,59.77,74,82,11.54,AU,1603340875
304,ipixuna,-1.76,-48.8,77.0,88,50,2.24,BR,1603341448
305,tongliao,43.61,122.27,44.87,48,86,12.3,CN,1603341448
306,high level,58.52,-117.14,21.2,73,75,5.82,CA,1603341057
307,tupik,54.43,119.93,27.25,87,0,5.08,RU,1603341449
308,kontagora,10.4,5.47,72.05,64,0,3.11,NG,1603341449
309,khatanga,71.97,102.5,11.1,93,76,10.36,RU,1603340892
310,urumqi,43.8,87.6,55.4,24,0,4.47,CN,1603341388
311,sartell,45.62,-94.21,30.99,80,90,3.31,US,1603341425
312,bredasdorp,-34.53,20.04,59.0,87,0,3.36,ZA,1603340864
313,sumbe,-11.21,13.84,74.61,78,68,5.1,AO,1603341450
314,aksu,41.12,80.26,62.06,26,0,0.69,CN,1603341450
315,batagay,67.63,134.63,14.18,94,95,3.0,RU,1603341451
316,marsabit,2.33,37.99,68.43,68,75,18.1,KE,1603341451
317,orapa,-21.28,25.37,67.19,68,0,20.83,BW,1603341451
318,tuburan,6.64,122.27,87.8,70,20,4.7,PH,1603341452
319,maumere,-8.62,122.21,85.6,64,3,2.39,ID,1603341452
320,kulhudhuffushi,6.62,73.07,81.68,78,100,12.57,MV,1603341452
321,tezu,27.92,96.17,87.78,42,0,2.98,IN,1603341453
322,vanimo,-2.67,141.3,81.82,66,99,6.35,PG,1603341391
323,fez,34.04,-5.0,62.6,93,100,4.7,MA,1603341453
324,luderitz,-26.65,15.16,58.51,84,76,21.03,NA,1603340685
325,polunochnoye,60.87,60.42,27.25,92,100,7.74,RU,1603341453
326,viedma,-40.81,-63.0,54.0,73,99,1.99,AR,1603341454
327,najran,17.49,44.13,62.6,25,43,1.59,SA,1603341454
328,rizhao,35.43,119.46,64.18,29,0,12.68,CN,1603341454
329,flinders,-34.58,150.86,75.99,65,32,3.0,AU,1603340738
330,moindou,-21.69,165.68,87.8,48,75,14.99,NC,1603341400
331,kiruna,67.86,20.23,19.4,100,99,4.7,SE,1603341455
332,howard springs,-12.5,131.05,93.0,59,20,10.29,AU,1603341455
333,cayenne,4.93,-52.33,77.0,100,75,9.35,GF,1603340745
334,yumen,40.28,97.2,55.74,31,0,12.12,CN,1603340922
335,catio,11.28,-15.25,77.34,92,94,3.91,GW,1603341456
336,independence,39.09,-94.42,51.01,100,90,6.93,US,1603341456
337,tasiilaq,65.61,-37.64,30.2,80,100,4.7,GL,1603340858
338,naples park,26.26,-81.81,75.2,94,75,10.29,US,1603341457
339,glasgow,55.87,-4.26,48.99,100,90,5.82,GB,1603341457
340,yar-sale,66.83,70.83,19.24,96,95,13.71,RU,1603341083
341,sao miguel,-5.47,-35.37,75.2,100,90,4.7,BR,1603341398
342,gigmoto,13.78,124.39,86.59,68,93,10.89,PH,1603341458
343,ponta delgada,37.73,-25.67,60.8,72,20,14.99,PT,1603341109
344,belaya gora,68.53,146.42,9.61,94,98,2.55,RU,1603341427
345,souillac,-20.52,57.52,77.0,65,40,12.75,MU,1603340901
346,husavik,66.04,-17.34,28.4,86,20,3.36,IS,1603340895
347,ebbw vale,51.78,-3.21,51.01,94,56,5.95,GB,1603341276
348,vila franca do campo,37.72,-25.43,60.8,72,20,14.99,PT,1603340861
349,litovko,49.24,135.17,49.12,57,7,12.55,RU,1603341459
350,ovalle,-30.6,-71.2,50.97,77,0,0.56,CL,1603341459
351,ardakan,32.31,54.02,57.2,16,0,4.7,IR,1603341460
352,ambon,-3.7,128.18,89.6,70,40,10.29,ID,1603340897
353,rawah,34.48,41.91,74.98,23,0,7.23,IQ,1603341460
354,saquarema,-22.92,-42.51,70.61,90,27,10.0,BR,1603341460
355,sur,22.57,59.53,83.35,46,1,10.16,OM,1603340794
356,sao jose da coroa grande,-8.9,-35.15,75.99,86,29,9.01,BR,1603341460
357,okhotsk,59.38,143.3,36.48,91,100,32.35,RU,1603340890
358,beyneu,45.32,55.2,46.99,55,100,8.93,KZ,1603341461
359,matagami,49.75,-77.63,33.8,100,90,5.82,CA,1603340873
360,kabare,-2.47,28.82,66.4,78,85,1.16,CD,1603341461
361,baykit,61.67,96.37,38.23,88,100,5.59,RU,1603341073
362,carnarvon,-24.87,113.63,77.0,44,0,19.46,AU,1603340758
363,coihaique,-45.58,-72.07,39.2,80,2,2.24,CL,1603341388
364,rio verde de mato grosso,-18.92,-54.84,77.14,58,1,2.95,BR,1603341462
365,freeport,40.66,-73.58,64.4,93,90,3.36,US,1603340660
366,gdov,58.74,27.81,45.61,93,100,16.44,RU,1603341463
367,namibe,-15.2,12.15,69.76,82,33,1.03,AO,1603341067
368,porto novo,6.5,2.6,80.6,88,40,10.29,BJ,1603340903
369,sabya,17.15,42.63,82.4,78,16,0.34,SA,1603341463
370,kirakira,-10.45,161.92,84.92,66,10,6.42,SB,1603340875
371,north bend,43.41,-124.22,51.8,66,1,6.93,US,1603341333
372,nadym,65.53,72.52,20.03,96,94,10.18,RU,1603341464
373,iskateley,67.68,53.15,24.84,97,25,8.66,RU,1603341407
374,dillon,34.42,-79.37,66.99,100,1,4.79,US,1603340824
375,alice springs,-23.7,133.88,100.4,17,40,24.16,AU,1603340772
376,kinkala,-4.36,14.76,70.05,97,100,2.66,CG,1603341465
377,rawson,-43.3,-65.1,55.04,40,12,22.28,AR,1603341006
378,acajutla,13.59,-89.83,71.01,100,76,4.83,SV,1603341176
379,marawi,8.0,124.29,87.01,69,95,5.01,PH,1603341024
380,san policarpo,12.18,125.51,86.54,69,51,10.49,PH,1603341055
381,aswan,24.09,32.91,78.51,18,0,8.99,EG,1603341117
382,talcahuano,-36.72,-73.12,48.2,87,0,5.82,CL,1603341466
383,bandarbeyla,9.49,50.81,81.46,58,85,1.34,SO,1603340967
384,umtata,-31.59,28.78,53.6,100,0,2.24,ZA,1603341466
385,chor,25.52,69.77,93.16,11,0,8.28,PK,1603341466
386,nanticoke,41.21,-76.0,62.01,92,40,3.04,US,1603341467
387,buala,-8.14,159.59,79.61,80,100,5.64,SB,1603341338
388,porto empedocle,37.29,13.53,60.01,88,77,1.01,IT,1603341467
389,chumikan,54.72,135.31,39.51,91,100,7.56,RU,1603341467
390,kashan,33.98,51.44,61.68,40,0,4.41,IR,1603341468
391,thompson,55.74,-97.86,23.0,100,90,4.32,CA,1603340741
392,koson,39.04,65.58,51.8,53,67,6.93,UZ,1603341468
393,batemans bay,-35.72,150.18,70.0,75,44,3.0,AU,1603341120
394,limenaria,40.63,24.58,57.99,87,0,4.7,GR,1603341469
395,muros,42.78,-9.06,53.01,92,16,1.01,ES,1603341027
396,bauchi,10.5,10.0,70.0,41,3,1.95,NG,1603341469
397,santiago,-33.46,-70.65,59.0,71,0,5.82,CL,1603340851
398,ulladulla,-35.35,150.47,71.6,64,40,10.29,AU,1603341382
399,zhireken,52.82,117.31,33.33,72,0,5.57,RU,1603341469
400,plettenberg bay,-34.05,23.37,65.1,46,0,3.22,ZA,1603341470
401,shamary,57.34,58.22,28.26,96,100,9.75,RU,1603341470
402,lorengau,-2.02,147.27,83.32,75,89,2.37,PG,1603341470
403,coari,-4.08,-63.14,73.26,94,99,0.83,BR,1603341470
404,yarkovo,57.4,67.08,32.76,92,61,6.4,RU,1603341471
405,grindavik,63.84,-22.43,42.8,87,90,26.4,IS,1603340753
406,kostyantynivka,48.53,37.71,48.47,72,100,7.99,UA,1603341471
407,lebu,-37.62,-73.65,46.22,86,11,15.99,CL,1603341276
408,leningradskiy,69.38,178.42,33.06,91,100,0.74,RU,1603341058
409,tiep,16.24,119.86,83.19,81,96,24.07,PH,1603341472
410,charleston,32.78,-79.93,73.0,94,75,5.82,US,1603341347
411,victoria,22.29,114.16,80.01,61,24,3.0,HK,1603341298
412,manokwari,-0.87,134.08,84.74,67,84,7.54,ID,1603341357
413,moose factory,51.26,-80.61,26.6,92,1,5.82,CA,1603341473
414,los llanos de aridane,28.66,-17.92,66.2,68,2,5.82,ES,1603341473
415,sorata,-15.77,-68.63,46.08,77,89,1.34,BO,1603341473
416,san quintin,30.48,-115.95,64.62,85,10,5.1,MX,1603341014
417,taltal,-25.4,-70.48,55.98,77,14,0.96,CL,1603341473
418,basco,20.45,121.97,83.97,85,60,9.93,PH,1603341389
419,salalah,17.02,54.09,80.6,65,20,3.36,OM,1603340896
420,cabanas,22.98,-82.92,73.4,100,74,3.36,CU,1603341474
421,oksfjord,70.24,22.35,26.6,79,90,8.05,NO,1603341474
422,lao cai,22.48,103.95,83.08,28,28,2.62,VN,1603341475
423,sikandra rao,27.7,78.4,86.4,21,7,3.96,IN,1603341475
424,port hedland,-20.32,118.57,87.8,52,33,18.34,AU,1603341343
425,plouzane,48.38,-4.62,55.4,100,67,4.7,FR,1603341475
426,thaba-tseka,-29.52,28.61,56.84,58,43,2.64,LS,1603341476
427,tari,12.41,4.49,77.04,29,0,5.99,NG,1603341476
428,nabire,-3.37,135.48,85.17,68,63,4.36,ID,1603341476
429,fortuna,40.6,-124.16,53.01,87,1,10.29,US,1603340739
430,tura,25.52,90.22,79.65,88,44,2.86,IN,1603341426
431,billings,45.78,-108.5,37.0,93,90,4.7,US,1603341335
432,poroshkovo,48.67,22.75,46.4,87,19,2.55,UA,1603341477
433,mayya,61.73,130.28,23.0,85,40,4.47,RU,1603341186
434,killybegs,54.63,-8.45,45.0,85,98,5.01,IE,1603341477
435,kranjska gora,46.48,13.79,52.0,91,63,6.17,SI,1603341478
436,juneau,58.3,-134.42,32.0,80,1,6.93,US,1603341333
437,batticaloa,7.71,81.69,88.43,53,1,2.15,LK,1603341478
438,aktash,50.3,87.73,37.62,69,0,6.67,RU,1603341478
439,hokitika,-42.72,170.97,54.88,72,76,10.07,NZ,1603341409
440,caxito,-8.58,13.66,75.2,83,96,3.36,AO,1603341479
441,phuket,8.0,98.25,84.99,74,20,5.82,TH,1603341244
442,meulaboh,4.14,96.13,87.06,60,99,4.97,ID,1603341040
443,winnemucca,40.97,-117.74,51.8,40,1,4.7,US,1603341479
444,moyobamba,-6.05,-76.97,65.93,92,97,0.22,PE,1603341479
445,shakawe,-18.37,21.85,72.55,25,0,7.63,BW,1603341480
446,havre,49.58,0.33,55.4,87,18,8.05,FR,1603341012
447,kinsale,51.71,-8.53,41.0,86,20,8.05,IE,1603341480
448,praia da vitoria,38.73,-27.07,62.6,67,75,16.06,PT,1603340891
449,buin,-33.73,-70.75,57.99,71,0,5.82,CL,1603341481
450,mitsamiouli,-11.38,43.28,81.73,72,31,11.77,KM,1603341481
451,bonavista,48.65,-53.11,46.99,85,81,11.01,CA,1603340788
452,acarau,-2.89,-40.12,79.27,82,5,15.03,BR,1603341383
453,port-cartier,50.03,-66.87,37.4,100,90,14.99,CA,1603341482
454,zalari,53.56,102.51,42.58,62,73,10.0,RU,1603341482
455,komsomolskiy,40.43,71.72,62.6,29,62,4.7,UZ,1603341314
456,yelets,52.62,38.5,40.53,95,96,5.77,RU,1603341482
457,kautokeino,69.01,23.04,23.23,97,99,10.11,NO,1603341483
458,broome,42.25,-75.83,62.01,93,90,4.7,US,1603341345
459,likasi,-10.98,26.73,67.24,84,88,4.56,CD,1603341483
460,kandrian,-6.22,149.55,85.24,68,73,4.41,PG,1603341483
461,palm coast,29.59,-81.21,78.01,100,40,9.48,US,1603341484
462,ilhabela,-23.78,-45.36,70.29,86,7,4.23,BR,1603341484
463,aranos,-24.13,19.12,71.2,26,84,12.01,NA,1603341484
464,chicama,-7.84,-79.15,63.64,82,46,5.84,PE,1603341399
465,parambu,-6.21,-40.69,72.64,73,5,5.19,BR,1603341347
466,chernyshevskiy,63.01,112.47,18.63,95,100,5.91,RU,1603340921
467,sand springs,36.14,-96.11,75.2,78,1,4.7,US,1603341485
468,gulu,2.77,32.3,67.68,95,95,2.68,UG,1603341485
469,hurricane,37.18,-113.29,66.0,22,0,2.15,US,1603341228
470,fort nelson,58.81,-122.7,21.2,62,90,3.36,CA,1603341012
471,dubbo,-32.25,148.62,82.4,32,40,3.36,AU,1603341305
472,ridgecrest,35.62,-117.67,69.01,33,0,5.01,US,1603341486
473,miandrivazo,-19.52,45.47,86.59,41,30,6.33,MG,1603341486
474,krabi,8.07,98.91,86.0,70,75,5.82,TH,1603341487
475,maxixe,-23.86,35.35,71.6,94,20,4.7,MZ,1603341487
476,grafton,42.21,-71.69,66.2,82,90,13.87,US,1603341487
477,bestobe,52.5,73.1,42.26,63,51,14.65,KZ,1603341487
478,tautira,-17.73,-149.15,82.0,74,75,5.82,PF,1603341487
479,preobrazheniye,42.9,133.91,60.01,74,13,6.78,RU,1603341488
480,inirida,3.87,-67.92,75.31,95,83,2.98,CO,1603340909
481,suhbaatar,50.23,106.21,43.47,56,0,8.08,MN,1603341488
482,eruwa,7.53,3.42,72.27,100,23,2.08,NG,1603341488
483,shimoda,34.67,138.95,69.8,68,75,14.99,JP,1603341317
484,shingu,33.73,135.98,77.0,57,75,17.22,JP,1603341489
485,buarcos,40.17,-8.88,55.99,93,20,4.7,PT,1603341489
486,terrace,54.52,-128.6,35.6,100,75,3.36,CA,1603340931
487,kanye,-24.97,25.33,62.62,65,23,19.22,BW,1603341490
488,bayanday,53.07,105.51,44.71,59,10,5.48,RU,1603341106
489,shakhtinsk,49.71,72.59,35.6,74,75,15.66,KZ,1603341490
490,kaitangata,-46.28,169.85,57.09,67,96,6.69,NZ,1603341315
491,ulaangom,49.98,92.07,37.62,71,97,3.13,MN,1603341490
492,kaeo,-35.1,173.78,64.0,83,100,5.01,NZ,1603341080
493,ust-tsilma,65.44,52.15,21.85,97,7,3.85,RU,1603341491
494,vanino,49.09,140.25,58.42,59,65,11.34,RU,1603341491
495,dovolnoye,54.5,79.67,41.23,78,100,18.88,RU,1603341492
496,kushima,31.46,131.23,75.2,88,75,3.36,JP,1603340922
497,cafarnaum,-11.69,-41.47,65.59,90,10,9.89,BR,1603341492
498,koumac,-20.57,164.28,78.85,61,40,4.0,NC,1603341492
499,buchanan,5.88,-10.05,75.2,100,75,2.24,LR,1603341492
500,barabai,-2.58,115.38,97.34,39,87,2.42,ID,1603341493
501,westport,41.14,-73.36,64.99,98,26,4.65,US,1603340876
502,derzhavinsk,51.1,66.32,35.98,85,70,17.25,KZ,1603341493
503,kiri buru,22.08,85.35,82.35,65,79,10.69,IN,1603341493
504,imbituba,-28.24,-48.67,71.6,88,75,10.29,BR,1603341373
505,lakatoro,-16.1,167.42,82.4,78,90,3.36,VU,1603341494
506,linaon,9.95,122.45,85.35,74,79,13.38,PH,1603341494
507,yanam,16.73,82.22,82.4,78,75,8.05,IN,1603341336
508,thayetmyo,19.32,95.18,84.54,72,46,9.22,MM,1603341433
509,calvia,39.57,2.51,73.4,56,99,3.36,ES,1603341495
510,klamath falls,42.22,-121.78,46.4,61,1,10.29,US,1603341495
511,darhan,49.49,105.92,42.35,59,0,10.22,MN,1603341495
512,samarai,-10.62,150.67,81.27,81,6,11.43,PG,1603341495
513,port arthur,38.8,121.27,53.6,40,20,8.95,CN,1603341496
514,myaundzha,63.05,147.19,14.81,87,70,3.85,RU,1603341496
515,luoyang,34.68,112.45,71.4,21,0,2.86,CN,1603341496
516,sloboda,51.14,40.3,42.39,81,100,7.2,RU,1603341496
517,tiznit,29.58,-9.5,62.2,72,100,4.63,MA,1603341497
518,lozuvatka,48.06,33.29,48.2,87,100,2.24,UA,1603341497
519,kaitong,44.81,123.15,43.86,52,0,11.99,CN,1603341497
520,gladstone,-23.85,151.25,78.8,57,65,13.87,AU,1603341497
521,sindal,57.47,10.2,54.0,96,100,5.01,DK,1603341497
522,fowa,8.92,6.4,73.29,83,41,1.34,NG,1603341498
523,olhao,37.03,-7.84,60.8,100,20,4.7,PT,1603341498
524,udachnyy,66.42,112.4,1.4,91,75,2.24,RU,1603340972
525,bonthe,7.53,-12.51,76.24,89,99,3.38,SL,1603341041
526,villa carlos paz,-31.42,-64.5,55.99,99,97,1.41,AR,1603341498
527,kutum,14.2,24.67,71.49,21,10,11.34,SD,1603341034
528,cerrito,6.84,-72.69,52.2,87,100,3.33,CO,1603341499
529,libertador general san martin,-23.81,-64.79,79.0,55,94,2.42,AR,1603340957
530,finschhafen,-6.6,147.87,83.77,71,26,2.86,PG,1603341499
531,talara,-4.58,-81.27,66.34,81,3,13.27,PE,1603341370
532,xapuri,-10.65,-68.5,71.98,95,96,2.53,BR,1603341500
533,banfora,10.63,-4.77,75.96,65,39,2.39,BF,1603341500
534,idritsa,56.33,28.9,44.89,94,100,10.96,RU,1603341500
535,alcaudete,37.59,-4.08,64.0,82,90,2.24,ES,1603341501
536,loukhi,66.08,33.04,30.0,95,100,9.33,RU,1603341501
537,shklo,49.96,23.54,37.4,100,22,2.24,UA,1603341501
538,panama city,8.99,-79.52,81.0,88,32,9.17,PA,1603341330
539,prince rupert,54.32,-130.32,37.4,100,1,8.05,CA,1603340782
540,jalu,29.03,21.55,58.53,75,0,5.37,LY,1603341025
541,irbeyskoye,55.64,95.45,48.31,55,99,4.36,RU,1603341502
542,walvis bay,-22.96,14.51,60.01,82,3,8.05,NA,1603341502
543,kieta,-6.22,155.63,83.32,73,61,7.61,PG,1603341016
544,bilma,18.69,12.92,75.13,20,4,12.08,NE,1603341502
545,port antonio,18.18,-76.46,77.0,94,75,4.7,JM,1603341503
546,ribeira brava,32.65,-17.07,64.4,59,20,9.17,PT,1603341503
547,buloh kasap,2.55,102.76,78.8,83,20,5.82,MY,1603341342
548,kathu,7.92,98.33,84.99,74,20,5.82,TH,1603340938
549,kingseat,56.1,-3.41,48.99,93,90,5.82,GB,1603341503
550,bealanana,-14.55,48.73,69.31,62,83,7.34,MG,1603341504
551,bilibino,68.05,166.44,19.96,95,24,2.51,RU,1603341406
552,normandin,48.83,-72.53,37.4,86,40,4.7,CA,1603341504
553,pontes e lacerda,-15.23,-59.34,74.75,74,24,2.1,BR,1603341418
554,kholm,59.27,32.85,38.23,94,100,8.39,RU,1603341504
555,boras,57.72,12.94,54.0,100,90,11.41,SE,1603341448
556,touros,-5.2,-35.46,75.2,100,90,4.7,BR,1603340792
557,visby,57.64,18.3,55.99,93,90,19.46,SE,1603341108
558,senneterre,48.38,-77.23,37.4,100,90,6.93,CA,1603341505
559,paamiut,61.99,-49.67,31.77,85,0,20.78,GL,1603341372
560,zacualtipan,20.65,-98.6,56.53,100,69,1.74,MX,1603341505
